stop_id,stop_code,stop_name,stop_lat,stop_lon
1,2-457-02,"Gościcino Robakowska 02",54.5901950000,18.1674920000
2,2-456-01,"Gościcino Okrężna 01",54.5937620000,18.1607620000
3,2-456-02,"Gościcino Okrężna 02",54.5938270000,18.1609940000
4,2-455-02,"Gościcino Wąska 02",54.5977370000,18.1588080000
5,2-455-01,"Gościcino Wąska 01",54.5974750000,18.1587130000
6,2-454-01,"Gościcino Wiejska 01",54.6020570000,18.1548960000
7,2-454-02,"Gościcino Wiejska 02",54.6023460000,18.1551440000
8,2-406-02,"Gościcino Równa 02 n/ż",54.6024300000,18.1383010000
9,2-406-01,"Gościcino Równa 01 n/ż",54.6016450000,18.1342060000
18,2-441-01,"Bolszewo Leszczynowa 01",54.6178110000,18.1746560000
19,2-416-02,"Bolszewo Reja 02",54.6189210000,18.1761400000
20,2-416-01,"Bolszewo Reja 01",54.6193210000,18.1762150000
21,2-417-02,"Bolszewo Ogrodowa 02",54.6220920000,18.1754530000
22,2-417-01,"Bolszewo Ogrodowa 01",54.6225810000,18.1754980000
23,2-418-02,"Bolszewo Mickiewicza 02",54.6264210000,18.1744150000
24,2-418-01,"Bolszewo Mickiewicza 01",54.6261790000,18.1746790000
25,2-421-01,"Orle Wesoła 01 n/ż",54.6321520000,18.1733520000
26,2-421-02,"Orle Wesoła 02 n/ż",54.6324940000,18.1730810000
27,2-422-01,"Orle Kościół 01",54.6377990000,18.1720610000
28,2-422-02,"Orle Kościół 02",54.6373200000,18.1719690000
29,2-424-01,"Orle Szkoła 01",54.6407660000,18.1655750000
30,2-414-02,"Bolszewo Główna - Kościół 02",54.6124310000,18.1801720000
31,2-414-01,"Bolszewo Główna - Kościół 01",54.6126800000,18.1809670000
32,2-413-01,"Bolszewo Glińskiego 01",54.6141240000,18.1867630000
33,2-413-02,"Bolszewo Glińskiego 02",54.6137020000,18.1841990000
34,2-412-01,"Bolszewo Świerkowa 01",54.6145220000,18.1916280000
35,2-412-02,"Bolszewo Świerkowa 02",54.6143370000,18.1911950000
36,1-172-03,"Wejherowo Tartaczna 03 n/ż",54.6153730000,18.2025570000
37,1-172-04,"Wejherowo Tartaczna 04 n/ż",54.6150150000,18.2023880000
38,1-171-02,"Wejherowo Budowlanych 02",54.6107980000,18.2007270000
39,1-171-01,"Wejherowo Budowlanych 01",54.6111610000,18.2013360000
40,1-113-01,"Wejherowo Tartaczna MZK 01 n/ż",54.6096910000,18.1988330000
41,1-113-02,"Wejherowo Tartaczna MZK 02 n/ż",54.6092090000,18.2005750000
43,2-401-01,"Bolszewo Zamostna 01",54.6105850000,18.1795030000
44,2-401-02,"Bolszewo Zamostna 02",54.6102610000,18.1801430000
45,2-402-01,"Gościcino Kopernika 01 n/ż",54.6095820000,18.1672630000
46,2-403-01,"Gościcino Szkoła 01",54.6080150000,18.1635120000
47,2-403-04,"Gościcino Szkoła 04",54.6091300000,18.1662320000
48,2-403-02,"Gościcino Szkoła 02",54.6081860000,18.1646230000
49,2-404-02,"Gościcino Most 02",54.6052010000,18.1591860000
50,2-404-01,"Gościcino Szeroka 01",54.6049540000,18.1576920000
53,2-472-02,"Gościcino Dworek Drzewiarza 02 n/ż",54.6036910000,18.1666020000
54,2-472-01,"Gościcino Dworek Drzewiarza 01 n/ż",54.6035420000,18.1665770000
55,2-473-02,"Gościcino Remiza 02",54.5995520000,18.1718080000
56,2-473-01,"Gościcino Remiza 01",54.5993450000,18.1718660000
57,1-212-01,"Wejherowo Sucharskiego 01",54.6085710000,18.1889000000
58,1-212-02,"Wejherowo Sucharskiego 02",54.6078490000,18.1899030000
59,1-210-01,"Wejherowo Zibertowo 01",54.6044690000,18.1955210000
60,1-210-02,"Wejherowo Zibertowo 02",54.6031960000,18.1975500000
61,1-209-02,"Wejherowo Ogródki Działkowe 02",54.6034600000,18.2041910000
62,1-209-01,"Wejherowo Ogródki Działkowe 01",54.6036330000,18.2031390000
63,1-208-01,"Wejherowo Dom Działkowca 01",54.6037360000,18.2112240000
64,1-208-02,"Wejherowo Dom Działkowca 02",54.6036470000,18.2130530000
65,1-207-02,"Wejherowo Transportowa 02",54.6033980000,18.2195920000
66,1-211-02,"Wejherowo Kotłowskiego 02",54.6055410000,18.1938420000
67,1-211-01,"Wejherowo Kotłowskiego 01",54.6065660000,18.1927880000
68,1-111-01,"Wejherowo Przemysłowa 01",54.6081080000,18.2204100000
69,1-112-02,"Wejherowo Urząd Pracy 02 n/ż",54.6079350000,18.2133210000
72,1-165-01,"Wejherowo Cementownia 01",54.6160500000,18.2121060000
73,1-165-02,"Wejherowo Cementownia 02",54.6158740000,18.2128880000
75,1-163-01,"Wejherowo Gulgowskiego 01",54.6089070000,18.2225170000
76,1-163-02,"Wejherowo Gulgowskiego 02",54.6088780000,18.2222670000
78,1-206-01,"Wejherowo Filharmonia Kaszubska 01",54.6031250000,18.2273010000
79,1-206-02,"Wejherowo Filharmonia Kaszubska 02",54.6030260000,18.2258500000
81,1-235-02,"Wejherowo Dworzec PKP 02",54.6055810000,18.2290100000
82,1-239-01,"Wejherowo Hallera 01 n/ż",54.6001210000,18.2271940000
83,1-205-02,"Wejherowo Sobieskiego - GS 02",54.6026590000,18.2317040000
85,1-111-02,"Wejherowo Przemysłowa 02",54.6073490000,18.2259120000
86,1-110-01,"Wejherowo Broniewskiego - Dworzec PKP 01",54.6068070000,18.2306520000
87,1-110-02,"Wejherowo Broniewskiego - Dworzec PKP 02",54.6067380000,18.2294030000
88,1-109-01,"Wejherowo Chopina 01",54.6051810000,18.2407110000
89,1-108-01,"Wejherowo Kochanowskiego SKM Nanice 01",54.6045550000,18.2459860000
90,1-108-02,"Wejherowo Kochanowskiego SKM Nanice 02",54.6042960000,18.2456490000
92,1-121-02,"Wejherowo Kusocińskiego 02",54.6068660000,18.2431590000
94,1-123-04,"Wejherowo Szpitalna 04 n/ż",54.6136280000,18.2494750000
95,1-123-02,"Wejherowo Szpitalna 02 n/ż",54.6132240000,18.2496510000
96,1-123-01,"Wejherowo Szpitalna 01 n/ż",54.6131480000,18.2496850000
97,1-126-02,"Wejherowo Kąpino Skrzyżowanie 02 n/ż",54.6315130000,18.2697930000
98,1-126-01,"Wejherowo Kąpino Skrzyżowanie 01 n/ż",54.6312010000,18.2705120000
99,1-124-01,"Wejherowo Nowowiejskiego 01 n/ż",54.6153250000,18.2538690000
100,1-124-02,"Wejherowo Nowowiejskiego 02 n/ż",54.6159880000,18.2538960000
101,1-125-01,"Wejherowo Kąpino Dolne 01 n/ż",54.6227430000,18.2624960000
102,1-125-02,"Wejherowo Kąpino Dolne 02 n/ż",54.6223110000,18.2617280000
103,2-532-02,"Kąpino Kościół 02",54.6291110000,18.2534800000
104,2-531-02,"Kąpino Klonowa 02",54.6308840000,18.2597450000
105,2-531-01,"Kąpino Klonowa 01",54.6308860000,18.2591210000
106,1-144-02,"Wejherowo Pomorska 02",54.6058460000,18.2517260000
107,1-144-01,"Wejherowo Pomorska 01",54.6059860000,18.2526290000
108,1-145-02,"Wejherowo Kochanowskiego 02",54.6060590000,18.2479080000
109,1-145-01,"Wejherowo Kochanowskiego 01",54.6062230000,18.2479410000
110,1-143-01,"Wejherowo Prusa - Szkoła 01",54.6064580000,18.2584610000
111,1-143-02,"Wejherowo Prusa - Szkoła 02",54.6062090000,18.2580560000
112,1-142-01,"Wejherowo Necla 01",54.6068170000,18.2610100000
113,1-142-02,"Wejherowo Necla 02",54.6064010000,18.2619360000
114,1-106-04,"Wejherowo Rybacka 04",54.6042380000,18.2615280000
115,1-106-03,"Wejherowo Rybacka 03",54.6044350000,18.2617620000
116,1-106-01,"Wejherowo Rybacka 01",54.6036190000,18.2607220000
117,1-106-02,"Wejherowo Rybacka 02",54.6032200000,18.2623700000
118,1-107-02,"Wejherowo Kociewska SKM Nanice 02",54.6036940000,18.2528290000
119,1-107-03,"Wejherowo Kociewska SKM Nanice 03",54.6043670000,18.2527410000
120,1-107-01,"Wejherowo Kociewska SKM Nanice 01",54.6042070000,18.2528990000
121,1-231-01,"Wejherowo 12 Marca - Myśliwska 01",54.6021240000,18.2553860000
123,1-256-01,"Wejherowo Pułkownika Dąbka 01",54.6015430000,18.2548050000
124,1-256-02,"Wejherowo Pułkownika Dąbka 02",54.6013800000,18.2547450000
125,1-232-02,"Wejherowo 12 Marca - Judyckiego 02",54.6018130000,18.2466780000
127,1-242-02,"Wejherowo Reformatów 02",54.6004980000,18.2436540000
129,1-234-01,"Wejherowo Świętego Jana 01",54.6039110000,18.2406340000
130,1-225-01,"Wejherowo Wniebowstąpienia 01",54.5999580000,18.2447940000
131,1-225-02,"Wejherowo Wniebowstąpienia 02",54.5996060000,18.2446890000
132,1-224-02,"Wejherowo Wysoka 02",54.5989060000,18.2536990000
133,1-224-01,"Wejherowo Wysoka 01",54.5989960000,18.2538030000
134,1-223-01,"Wejherowo Południowa 01 n/ż",54.5987840000,18.2584100000
135,1-223-02,"Wejherowo Południowa 02 n/ż",54.5986890000,18.2589420000
136,1-222-02,"Wejherowo Cmentarz 02",54.5984480000,18.2693470000
137,1-222-01,"Wejherowo Cmentarz 01",54.5986840000,18.2657230000
138,1-221-02,"Wejherowo Odrębna 02",54.5983580000,18.2723490000
139,1-221-01,"Wejherowo Odrębna 01",54.5987350000,18.2713810000
140,1-255-01,"Wejherowo Wąska 01",54.6014710000,18.2603700000
141,1-255-02,"Wejherowo Wąska 02",54.6012840000,18.2614150000
142,1-254-01,"Wejherowo Leśna 01",54.6013740000,18.2663880000
143,1-254-02,"Wejherowo Leśna 02",54.6011860000,18.2678550000
146,1-251-01,"Wejherowo os. Sikorskiego 01",54.6013130000,18.2812230000
147,1-201-01,"Wejherowo Cegielnia 01",54.5873110000,18.2493380000
148,1-202-01,"Wejherowo Marynarki Wojennej 01",54.5912900000,18.2406690000
149,1-202-02,"Wejherowo Marynarki Wojennej 02",54.5896400000,18.2436950000
150,1-203-01,"Wejherowo Sportowa 01 n/ż",54.5973500000,18.2323610000
151,1-203-02,"Wejherowo Sportowa 02 n/ż",54.5968940000,18.2322930000
152,1-204-02,"Wejherowo Starostwo Powiatowe 02",54.6011100000,18.2332320000
153,1-204-01,"Wejherowo Starostwo Powiatowe 01",54.6010740000,18.2334680000
154,2-511-02,"Gowino Zaciszne Zalesie 02 n/ż",54.5908210000,18.2052130000
155,2-511-01,"Gowino Zaciszne Zalesie 01 n/ż",54.5910070000,18.2054250000
156,2-512-02,"Gowino Pętkowice Grubby 02 n/ż",54.5867640000,18.2033700000
157,2-512-01,"Gowino Pętkowice Grubby 01 n/ż",54.5859200000,18.2031220000
158,2-444-01,"Bolszewo Paradyż 01 n/ż",54.6300860000,18.1496960000
159,2-444-02,"Bolszewo Paradyż 02 n/ż",54.6289010000,18.1516980000
160,2-445-01,"Góra Szeroka 01 n/ż",54.6344230000,18.1408330000
161,2-445-02,"Góra Szeroka 02 n/ż",54.6350050000,18.1392040000
162,2-446-01,"Góra Jeziorna 01 n/ż",54.6360280000,18.1362160000
164,2-448-02,"Góra Szkolna 02",54.6312170000,18.1130130000
165,2-447-01,"Góra Kościół 01",54.6327890000,18.1174090000
166,2-447-02,"Góra Kościół 02",54.6326310000,18.1169600000
168,1-105-02,"Wejherowo Reja 02 n/ż",54.6028390000,18.2679760000
169,1-104-02,"Wejherowo Ceynowy SKM Śmiechowo 02",54.6024250000,18.2750440000
170,1-104-01,"Wejherowo Ceynowy SKM Śmiechowo 01",54.6027530000,18.2765050000
172,1-103-02,"Wejherowo Gdańska - ""ZRYW"" 02",54.6026330000,18.2848890000
173,1-102-01,"Wejherowo Gdańska 01 n/ż",54.6033320000,18.2908550000
174,1-102-02,"Wejherowo Gdańska 02 n/ż",54.6030030000,18.2900500000
175,3-728-02,"Reda Warzywnicza 02 n/ż",54.6038700000,18.3068960000
176,3-728-01,"Reda Warzywnicza 01 n/ż",54.6035860000,18.3038090000
177,3-727-01,"Reda SKM Pieleszewo 01 n/ż",54.6049230000,18.3155870000
178,3-727-02,"Reda SKM Pieleszewo 02 n/ż",54.6044590000,18.3194100000
179,3-725-01,"Reda Rzemieślnicza 01 n/ż",54.6050940000,18.3370020000
180,3-725-02,"Reda Rzemieślnicza 02 n/ż",54.6051380000,18.3395410000
181,3-726-01,"Reda Wejherowska 01 n/ż",54.6043820000,18.3280500000
182,3-726-02,"Reda Wejherowska 02 n/ż",54.6041560000,18.3285490000
183,3-724-02,"Reda Gdańska - Kościół 02",54.6044880000,18.3479830000
184,3-761-02,"Reda Łąkowa - Ośr. Zdrowia 02",54.6033430000,18.3502300000
185,3-761-01,"Reda Łąkowa - Ośr. Zdrowia 01",54.6031850000,18.3499340000
186,3-762-01,"Reda Łąkowa - Osiedle 01",54.6028920000,18.3565760000
187,3-762-02,"Reda Łąkowa - Osiedle 02",54.6031320000,18.3551350000
188,3-763-01,"Reda Cicha 01 n/ż",54.6027970000,18.3621940000
189,3-763-02,"Reda Cicha 02 n/ż",54.6028970000,18.3616060000
190,3-764-01,"Reda Rolnicza 01",54.6069710000,18.3637110000
191,3-764-02,"Reda Rolnicza 02",54.6068760000,18.3634270000
192,3-765-01,"Reda Mostowa 01 n/ż",54.6090540000,18.3636780000
193,3-765-02,"Reda Mostowa 02 n/ż",54.6086200000,18.3634560000
194,3-766-02,"Reda Wrzosowa 02",54.6115340000,18.3598450000
197,3-742-02,"Reda Pucka - Nowa 02",54.6099200000,18.3489840000
198,3-742-01,"Reda Pucka - Nowa 01",54.6111290000,18.3488360000
199,3-743-04,"Reda Ciechocino 04",54.6158850000,18.3458350000
200,3-753-02,"Reda Graniczna 02",54.6262830000,18.3526380000
201,3-753-01,"Reda Graniczna 01",54.6258820000,18.3523010000
202,3-752-02,"Reda Harcerska 02 n/ż",54.6219350000,18.3479510000
203,3-752-01,"Reda Harcerska 01 n/ż",54.6218030000,18.3480430000
204,3-754-02,"Reda Podleśna 02",54.6285350000,18.3554720000
205,3-754-01,"Reda Podleśna 01",54.6293890000,18.3566990000
206,3-755-01,"Reda Rekowo 01",54.6318430000,18.3597390000
207,3-723-01,"Reda Gdańska - Szkolna 01",54.5989980000,18.3522630000
208,3-722-03,"Reda Dworzec PKP 03",54.5952350000,18.3535920000
209,5-714-01,"Rumia Dolna 01 n/ż",54.5880970000,18.3607060000
210,3-723-02,"Reda Gdańska - Cmentarz 02",54.6005090000,18.3508320000
211,1-231-02,"Wejherowo 12 Marca - Myśliwska 02",54.6020840000,18.2559470000
213,4-612-02,"Kębłowo Leśna 02",54.5948980000,18.1098070000
214,4-601-01,"Kębłowo Wiejska 01",54.5937970000,18.1185080000
215,2-514-01,"Gowino Szkoła 01",54.5749150000,18.2010960000
216,2-513-02,"Gowino Kościół 02",54.5783850000,18.2004830000
217,2-513-01,"Gowino Kościół 01",54.5779480000,18.2006800000
220,5-712-02,"Rumia Chełmońskiego 02",54.5779720000,18.3753250000
221,5-712-01,"Rumia Chełmońskiego 01",54.5787770000,18.3733330000
222,5-711-01,"Rumia Grunwaldzka - Ceynowy 01 n/ż",54.5756880000,18.3786630000
223,5-710-06,"Rumia Dworzec PKP 06",54.5695620000,18.3871690000
224,3-721-01,"Reda Obwodowa 01 n/ż",54.5902380000,18.3588170000
225,2-521-01,"Gniewowo Leśniczówka 01 n/ż",54.5785780000,18.2919430000
226,2-521-02,"Gniewowo Leśniczówka 02 n/ż",54.5781020000,18.2926540000
227,2-522-01,"Gniewowo Ogrodowa 01 n/ż",54.5753160000,18.3013240000
228,2-522-02,"Gniewowo Ogrodowa 02 n/ż",54.5752440000,18.3012570000
229,2-523-01,"Gniewowo Spacerowa 01",54.5741900000,18.3089590000
231,2-411-01,"Bolszewo Łąkowa 01",54.6153240000,18.1973360000
232,2-411-02,"Bolszewo Łąkowa 02",54.6151640000,18.1971730000
233,3-756-01,"Reda Lipowa 01 n/ż",54.6342950000,18.3670130000
234,3-756-02,"Reda Lipowa 02 n/ż",54.6338190000,18.3662230000
235,2-514-02,"Gowino Szkoła 02",54.5761400000,18.2003050000
236,1-162-02,"Wejherowo Graniczna 02",54.6097970000,18.2266090000
237,1-184-02,"Wejherowo Niska 02 n/ż",54.6112920000,18.2304400000
238,1-183-02,"Wejherowo Okrężna 02 n/ż",54.6115690000,18.2331860000
239,1-183-01,"Wejherowo Okrężna 01 n/ż",54.6117490000,18.2316830000
240,1-182-02,"Wejherowo Nanicka 02",54.6099890000,18.2382570000
241,1-182-01,"Wejherowo Nanicka 01",54.6102640000,18.2377620000
245,1-142-04,"Wejherowo Necla 04",54.6068950000,18.2631800000
246,1-272-02,"Wejherowo Konopnickiej 02",54.6072690000,18.2688430000
247,1-272-01,"Wejherowo Konopnickiej 01",54.6074930000,18.2670670000
248,1-273-01,"Wejherowo Chmielewskiego 01",54.6073890000,18.2709210000
251,1-208-03,"Wejherowo Dom Działkowca 03",54.6043890000,18.2123250000
252,1-112-01,"Wejherowo Urząd Pracy 01 n/ż",54.6083810000,18.2110100000
253,2-415-01,"Bolszewo Zamostna - OSP 01",54.6148170000,18.1772570000
254,2-441-02,"Bolszewo Leszczynowa 02",54.6183500000,18.1731810000
255,2-415-02,"Bolszewo Strażacka 02",54.6163440000,18.1763530000
256,1-263-01,"Wejherowo os. Fenikowskiego 01",54.6109420000,18.2931710000
257,1-261-01,"Wejherowo Gryfa Pomorskiego 01",54.6062990000,18.2976820000
258,1-101-04,"Wejherowo Śmiechowo Ogrodowa 04",54.6040930000,18.2994880000
259,1-101-01,"Wejherowo Śmiechowo Ogrodowa 01",54.6031370000,18.2982370000
260,1-101-02,"Wejherowo Śmiechowo Ogrodowa 02",54.6028320000,18.3007330000
262,3-743-02,"Reda Ciechocino 02",54.6160210000,18.3450320000
263,3-722-02,"Reda Dworzec PKP 02",54.5952520000,18.3542070000
264,3-722-01,"Reda Dworzec PKP 01",54.5950490000,18.3548630000
265,3-794-01,"Reda Gniewowska - Szkoła 01",54.5966510000,18.3439760000
266,3-794-02,"Reda Gniewowska - Szkoła 02",54.5965220000,18.3439790000
268,3-798-02,"Reda Konopnickiej 02 n/ż",54.5988550000,18.3456760000
269,3-798-01,"Reda Konopnickiej 01 n/ż",54.5989150000,18.3457700000
270,3-791-01,"Reda Gniewowska 01",54.6013490000,18.3489420000
271,3-791-02,"Reda Gniewowska 02",54.6009790000,18.3488990000
272,3-783-01,"Reda Szkolna 01 n/ż",54.5993380000,18.3637160000
273,3-783-02,"Reda Szkolna 02 n/ż",54.5988240000,18.3634000000
274,2-406-04,"Gościcino Równa 04",54.6023810000,18.1360570000
279,4-616-02,"Kochanowo Wieś 02",54.6056790000,18.1054200000
280,4-613-01,"Kębłowo Kościół 01",54.5970810000,18.0978980000
281,4-601-02,"Kębłowo Wiejska 02",54.5946840000,18.1217780000
282,4-612-01,"Kębłowo Leśna 01",54.5950740000,18.1092360000
283,4-613-02,"Kębłowo Kościół 02",54.5960010000,18.0990960000
284,4-615-01,"Kochanowo 01 n/ż",54.6049130000,18.1029180000
285,4-616-01,"Kochanowo Wieś 01",54.6054240000,18.1066920000
289,1-207-01,"Wejherowo Transportowa 01",54.6035290000,18.2199670000
290,1-232-01,"Wejherowo 12 Marca - Judyckiego 01",54.6019510000,18.2475370000
292,2-451-02,"Bolszewo Leśna - Szkoła 02",54.6159640000,18.1627500000
294,2-515-01,"Gowino Brzozowa 01",54.5675620000,18.1947210000
295,2-423-01,"Orle Łąkowa 01",54.6404960000,18.1699650000
296,2-423-02,"Orle Łąkowa 02",54.6403790000,18.1699470000
297,2-433-01,"Orle Krótka 01 n/ż",54.6355120000,18.1666020000
298,2-433-02,"Orle Krótka 02 n/ż",54.6352700000,18.1655230000
299,2-432-02,"Orle Kwiatowa 02",54.6332520000,18.1589750000
300,2-432-01,"Orle Kwiatowa 01",54.6333380000,18.1595730000
301,3-755-02,"Reda Rekowo 02",54.6319890000,18.3597500000
302,3-758-02,"Reda Rekowo Lipowa 02",54.6386570000,18.3724450000
303,3-724-01,"Reda Gdańska - Kościół 01",54.6025880000,18.3498590000
304,1-180-02,"Wejherowo Węzeł Działki 02 n/ż",54.6059790000,18.2116100000
306,3-772-02,"Reda Jaśminowa 02",54.6147830000,18.3390680000
314,1-275-02,"Wejherowo Dzięcielskiego 02",54.6064980000,18.2855840000
317,1-123-03,"Wejherowo Szpitalna 03 n/ż",54.6134050000,18.2494490000
318,1-129-02,"Wejherowo Szpital 02",54.6148520000,18.2454050000
319,2-401-04,"Bolszewo Zamostna 04",54.6102780000,18.1825020000
320,2-431-01,"Orle Topolowa 01 n/ż",54.6316710000,18.1481530000
321,2-431-02,"Orle Topolowa 02 n/ż",54.6316670000,18.1478720000
322,1-210-03,"Wejherowo Zibertowo 03",54.6032320000,18.1953920000
323,2-476-01,"Gościcino Fiołkowa 01",54.5980160000,18.1898110000
324,2-476-02,"Gościcino Fiołkowa 02",54.5976050000,18.1888250000
325,2-475-01,"Gościcino Grubby 01",54.5958210000,18.1771330000
327,2-475-02,"Gościcino Grubby 02",54.5958810000,18.1786630000
329,1-235-01,"Wejherowo Dworzec PKP 01",54.6052350000,18.2304790000
330,5-730-01,"Rumia C.H. ""Port Rumia"" 01",54.5842960000,18.3745570000
331,5-731-02,"Rumia Jeziorna 02 n/ż",54.5875300000,18.3738360000
332,5-731-01,"Rumia Jeziorna 01 n/ż",54.5882370000,18.3721910000
333,3-732-01,"Reda Aquapark 01",54.5944460000,18.3651010000
334,3-781-01,"Reda Młyńska 01",54.5947330000,18.3602780000
335,3-781-02,"Reda Młyńska 02",54.5945850000,18.3603080000
337,2-449-02,"Bolszewo Zamostna - Kościół 02",54.6118600000,18.1798480000
338,2-449-01,"Bolszewo Zamostna - Kościół 01",54.6119950000,18.1799980000
339,1-213-01,"Wejherowo Krofeya 01",54.6089400000,18.1912500000
340,1-211-03,"Wejherowo Kotłowskiego 03",54.6063810000,18.1939740000
346,3-796-01,"Reda Cmentarz 01",54.5924510000,18.3366600000
347,3-796-02,"Reda Cmentarz 02",54.5923320000,18.3367450000
348,3-732-02,"Reda Aquapark 02",54.5919700000,18.3671560000
349,3-767-01,"Reda Brzozowa 01",54.6093410000,18.3530280000
350,3-766-01,"Reda Wiśniowa 01",54.6097040000,18.3569930000
351,3-743-01,"Reda Ciechocino 01",54.6177301000,18.3457307000
354,3-722-04,"Reda Dworzec PKP 04",54.5956630000,18.3536030000
355,1-221-04,"Wejherowo Odrębna 04",54.5986770000,18.2722350000
356,1-109-02,"Wejherowo Chopina 02",54.6051050000,18.2391140000
358,4-615-02,"Kochanowo 02 n/ż",54.6049770000,18.1028450000
400,2-619-02,"Gościcino Stacja Pomp 02 n/ż",54.6091900000,18.1301000000
401,4-618-02,"Kochanowo Kolonia 02 n/ż",54.6076510000,18.1219630000
402,2-619-01,"Gościcino Stacja Pomp 01 n/ż",54.6087670000,18.1317480000
403,4-617-02,"Kochanowo Kapliczka 02 n/ż",54.6061120000,18.1132680000
405,4-617-01,"Kochanowo Kapliczka 01 n/ż",54.6060860000,18.1136490000
406,4-618-01,"Kochanowo Kolonia 01 n/ż",54.6075840000,18.1220520000
408,4-614-01,"Kębłowo Ludowa 01 n/ż",54.6013260000,18.1012250000
409,4-614-02,"Kębłowo Ludowa 02 n/ż",54.6013750000,18.1010650000
413,5-713-02,"Rumia C.H. ""Port Rumia"" - Grunwaldzka 02",54.5840910000,18.3648560000
414,5-713-01,"Rumia C.H. ""Port Rumia"" - Grunwaldzka 01",54.5824480000,18.3670550000
417,3-768-02,"Reda Brzozowa - Szkoła 02",54.6111830000,18.3536180000
423,1-206-03,"Wejherowo Filharmonia Kaszubska 03",54.6035050000,18.2279580000
424,1-206-04,"Wejherowo Filharmonia Kaszubska 04",54.6039830000,18.2284380000
425,1-229-03,"Wejherowo Myśliwska 03 n/ż",54.6010110000,18.2569310000
426,1-253-01,"Wejherowo Sędzickiego SKM Śmiechowo 01",54.6012810000,18.2729880000
427,1-253-02,"Wejherowo Sędzickiego SKM Śmiechowo 02",54.6011960000,18.2745660000
428,1-103-01,"Wejherowo Gdańska - ""ZRYW"" 01",54.6029120000,18.2844410000
431,2-462-02,"Bolszewo Wspólna 02 n/ż",54.6182900000,18.1887250000
433,2-464-01,"Bolszewo Orzechowa 01",54.6182490000,18.1814030000
434,2-464-02,"Bolszewo Orzechowa 02",54.6181330000,18.1826420000
436,2-462-01,"Bolszewo Wspólna 01 n/ż",54.6187630000,18.1875470000
443,1-162-01,"Wejherowo Graniczna 01",54.6099940000,18.2266500000
516,1-164-01,"Wejherowo Karnowskiego 01",54.6126600000,18.2183500000
517,2-446-02,"Góra Jeziorna 02 n/ż",54.6357210000,18.1356360000
519,1-276-02,"Wejherowo Gryfa Pomorskiego - Kościół 02 n/ż",54.6064510000,18.2915530000
520,1-164-02,"Wejherowo Karnowskiego 02",54.6118100000,18.2189100000
521,1-105-01,"Wejherowo Reja 01 n/ż",54.6030290000,18.2694640000
527,1-235-04,"Wejherowo Dworzec PKP 04",54.6061100000,18.2310000000
565,3-779-01,"Reda Przemysłowa 01 n/ż",54.6106360000,18.3462390000
567,3-777-01,"Reda Trzcinowa 01",54.6095500000,18.3302110000
568,3-776-01,"Reda Miętowa 01 n/ż",54.6096940000,18.3230920000
618,1-238-02,"Wejherowo Bractwa Kurkowego 02 n/ż",54.5969900000,18.2073400000
634,3-742-04,"Reda Pucka - Nowa 04",54.6107880000,18.3504050000
635,3-741-03,"Reda OSP 03 n/ż",54.6069910000,18.3477420000
636,3-741-01,"Reda OSP 01 n/ż",54.6057180000,18.3465770000
637,3-799-01,"Reda os. Konopnickiej 01",54.6006120000,18.3440090000
638,3-751-02,"Reda Skautów 02 n/ż",54.6188980000,18.3459170000
641,3-778-01,"Reda Jarzębinowa 01",54.6091560000,18.3375780000
644,5-729-02,"Rumia C.H. ""Port Rumia"" - Kosynierów 02 n/ż",54.5862500000,18.3760600000
645,3-773-02,"Reda Kwiatowa 02 n/ż",54.6141350000,18.3344170000
646,3-774-02,"Reda Konwaliowa 02",54.6134880000,18.3289590000
647,3-775-02,"Reda Pieleszewo Karłowicza 02",54.6120800000,18.3228930000
655,3-758-04,"Reda Rekowo Lipowa 04",54.6383830000,18.3723080000
656,2-450-01,"Bolszewo Harcerska 01 n/ż",54.6186580000,18.1642100000
657,2-450-02,"Bolszewo Harcerska 02 n/ż",54.6181960000,18.1640390000
658,2-442-02,"Bolszewo Słowackiego 02",54.6213580000,18.1667830000
659,2-442-01,"Bolszewo Słowackiego 01",54.6210260000,18.1681600000
660,1-166-01,"Wejherowo Tartaczna 01 n/ż",54.6162270000,18.2035230000
661,1-166-02,"Wejherowo Tartaczna 02 n/ż",54.6161130000,18.2035500000
662,1-120-01,"Wejherowo Pruszkowskiego 01",54.6054770000,18.2428380000
663,1-121-01,"Wejherowo Obrońców Helu 01",54.6080510000,18.2440830000
664,1-122-03,"Wejherowo Nadrzeczna 03 n/ż",54.6098630000,18.2443410000
665,1-122-02,"Wejherowo Nadrzeczna 02 n/ż",54.6090150000,18.2443540000
666,1-122-01,"Wejherowo Nadrzeczna 01 n/ż",54.6102470000,18.2456080000
672,1-274-03,"Wejherowo Patoka 03",54.6059800000,18.2818500000
673,1-273-92,"Wejherowo Chmielewskiego 92",54.6068900000,18.2719800000
674,1-274-92,"Wejherowo Stefczyka 92",54.6051600000,18.2805900000
675,2-471-01,"Gościcino PKP - Fabryczna 01 n/ż",54.6050490000,18.1633380000
676,2-471-02,"Gościcino PKP - Fabryczna 02 n/ż",54.6050440000,18.1637190000
677,1-205-01,"Wejherowo Sobieskiego - GS 01",54.6028040000,18.2327670000
678,1-233-01,"Wejherowo Rzeźnicka SKM Nanice 01",54.6032180000,18.2457120000
679,1-241-02,"Wejherowo Mickiewicza - Ratusz 02",54.6008850000,18.2387340000
689,3-733-01,"Reda Aquapark 01",54.5944460000,18.3651010000
